{"version": 0.6, "generator": "Overpass API 0.7.62.11 87bfad18", "osm3s": {"timestamp_osm_base": "2026-04-10T00:07:33Z", "copyright": "The data included in this document is from www.openstreetmap.org. The data is made available under ODbL."}, "elements": [{"type": "node", "id": 11140837996, "lat": 20.5955755, "lon": 74.1981203, "tags": {"addr:city": "Satana, Nashik", "addr:postcode": "423301", "addr:street": "Mahatma Phule Road", "name": "Suresh Kirana", "opening_hours": "Mo-Su 07:00-21:00", "operator": "Anil Sonje", "payment:cash": "yes", "payment:upi": "yes", "phone": "+919420032011", "shop": "supermarket"}}, {"type": "node", "id": 11807573489, "lat": 20.5980247, "lon": 74.2022414}, {"type": "node", "id": 11807573490, "lat": 20.5980105, "lon": 74.2023396}, {"type": "node", "id": 11807573491, "lat": 20.597957, "lon": 74.2023308}, {"type": "node", "id": 11807573492, "lat": 20.5979711, "lon": 74.2022325}, {"type": "node", "id": 12345814008, "lat": 20.7278248, "lon": 74.3118941, "tags": {"amenity": "bank", "name": "Bank of Baroda"}}, {"type": "node", "id": 12377676667, "lat": 20.7251038, "lon": 74.3156594, "tags": {"amenity": "restaurant", "name": "Swami Hotel, Nampur"}}, {"type": "node", "id": 12377726529, "lat": 20.7213415, "lon": 74.31621, "tags": {"amenity": "restaurant", "name": "Sanskriti Hotel"}}, {"type": "node", "id": 12378141583, "lat": 20.7211422, "lon": 74.3159773, "tags": {"amenity": "restaurant", "name": "Ganga Sagar Pure Veg Hotel"}}, {"type": "node", "id": 12378146536, "lat": 20.7273057, "lon": 74.315419, "tags": {"amenity": "restaurant", "name": "Asara Hotel"}}, {"type": "node", "id": 12378159190, "lat": 20.8204765, "lon": 74.3539556, "tags": {"amenity": "restaurant", "name": "Hotel Ranwara"}}, {"type": "way", "id": 1271505446, "nodes": [11807573489, 11807573490, 11807573491, 11807573492, 11807573489], "tags": {"addr:street": "PDP Nagar", "amenity": "bank", "building": "yes", "name": "Bank of maharashtra"}}]}