{"version": 0.6, "generator": "Overpass API 0.7.62.11 87bfad18", "osm3s": {"timestamp_osm_base": "2026-04-10T00:04:39Z", "copyright": "The data included in this document is from www.openstreetmap.org. The data is made available under ODbL."}, "elements": [{"type": "node", "id": 10288973743, "lat": 20.3019315, "lon": 74.3375197}, {"type": "node", "id": 10288973744, "lat": 20.3019319, "lon": 74.3375838}, {"type": "node", "id": 10288973745, "lat": 20.301817, "lon": 74.3375846}, {"type": "node", "id": 10288973746, "lat": 20.3018166, "lon": 74.3375204}, {"type": "node", "id": 10902512026, "lat": 20.2347006, "lon": 74.4471997, "tags": {"amenity": "cafe", "name": "canteen 2"}}, {"type": "node", "id": 10902512027, "lat": 20.2353548, "lon": 74.4471856, "tags": {"amenity": "cafe", "name": "canteen 1"}}, {"type": "node", "id": 10902512078, "lat": 20.2354731, "lon": 74.4467467, "tags": {"name": "infinix mall", "shop": "mall"}}, {"type": "node", "id": 10902512080, "lat": 20.2341236, "lon": 74.446808, "tags": {"shop": "supermarket"}}, {"type": "node", "id": 10902512081, "lat": 20.2339751, "lon": 74.4468013, "tags": {"shop": "stationery"}}, {"type": "node", "id": 10902512084, "lat": 20.2342657, "lon": 74.4456051, "tags": {"description": "Steel shop", "shop": "trade"}}, {"type": "node", "id": 10902512085, "lat": 20.2342883, "lon": 74.4452266, "tags": {"shop": "electronics"}}, {"type": "node", "id": 10902512086, "lat": 20.2340254, "lon": 74.4454296, "tags": {"shop": "general"}}, {"type": "way", "id": 1125129801, "nodes": [10288973743, 10288973744, 10288973745, 10288973746, 10288973743], "tags": {"addr:city": "Kokankhede", "addr:housenumber": "Kokankhede", "addr:postcode": "423104", "building": "yes", "name": "Gurukrupa General Store", "shop": "yes"}}]}